City_ID,City,Lat,Lng,Max Temp,Humidity,Cloudiness,Wind Speed,Country,Date
0,port arthur,38.8,121.2667,6.12,66,51,13.28,CN,1699493730
1,petropavlovsk-kamchatsky,53.0452,158.6483,0.33,73,20,9.39,RU,1699493446
2,bilibino,68.0546,166.4372,-15.31,94,100,1.09,RU,1699493731
3,fale old settlement,-9.3852,-171.2468,28.86,69,93,4.84,TK,1699493731
4,kodinsk,58.6881,99.1844,-16.42,93,18,0.77,RU,1699493732
5,tindouf,27.6711,-8.1474,19.12,31,0,4.93,DZ,1699493732
6,chibougamau,49.9168,-74.3659,-13.21,85,0,2.57,CA,1699493542
7,port douglas,-16.4833,145.4667,26.57,67,22,4.17,AU,1699493733
8,college,64.8569,-147.8028,-1.01,66,75,4.12,US,1699493580
9,st. john's,47.5649,-52.7093,7.21,99,100,2.06,CA,1699493650
10,mascote,-15.5631,-39.3025,19.29,90,0,0.84,BR,1699493733
11,olonkinbyen,70.9221,-8.7187,-0.48,74,98,4.25,SJ,1699493734
12,albany,42.6001,-73.9662,2.23,64,100,0.71,US,1699493663
13,raghunathpur,23.55,86.6667,22.02,47,4,1.97,IN,1699493734
14,brezina,33.0989,1.2608,13.25,44,96,3.07,DZ,1699493735
15,cururupu,-1.8283,-44.8683,25.06,87,100,2.0,BR,1699493735
16,buta,2.7858,24.73,21.38,100,100,1.19,CD,1699493736
17,midland,31.9974,-102.0779,26.37,38,0,2.57,US,1699493570
18,ketchikan,55.3422,-131.6461,11.99,81,100,13.38,US,1699493736
19,udachny,66.4167,112.4,-20.14,88,78,3.02,RU,1699493737
20,waitangi,-43.9535,-176.5597,10.74,76,40,11.78,NZ,1699493737
21,iqaluit,63.7506,-68.5145,-8.15,73,75,7.2,CA,1699493737
22,trenggalek,-8.05,111.7167,31.35,53,92,3.15,ID,1699493738
23,port hedland,-20.3167,118.5667,31.03,62,0,3.6,AU,1699493738
24,port elizabeth,-33.918,25.5701,13.51,82,0,2.06,ZA,1699493738
25,paraiso,9.8383,-83.8656,20.79,95,87,1.63,CR,1699493739
26,daru,-9.0763,143.2092,28.6,61,63,4.85,PG,1699493739
27,wailua homesteads,22.0669,-159.378,27.24,77,40,4.63,US,1699493739
28,punta arenas,-53.15,-70.9167,6.06,65,40,6.17,CL,1699493538
29,makokou,0.5738,12.8642,20.6,99,100,0.41,GA,1699493740
30,port-aux-francais,-49.35,70.2167,5.76,94,100,16.4,TF,1699493740
31,constantia,44.1833,28.65,10.39,62,100,7.28,RO,1699493538
32,castillos,-34.1667,-53.8333,12.39,84,21,1.08,UY,1699493741
33,praia,14.9215,-23.5087,24.3,64,40,8.23,CV,1699493338
34,mahajanga,-15.7167,46.3167,26.48,65,17,0.39,MG,1699493742
35,port moresby,-9.4431,147.1797,30.68,62,40,7.72,PG,1699493744
36,arraial do cabo,-22.9661,-42.0278,22.1,80,0,12.31,BR,1699493745
37,yarmouth,41.7057,-70.2286,7.2,61,0,8.49,US,1699493745
38,modrany,50.0112,14.4096,4.96,90,0,4.63,CZ,1699493746
39,badger,64.8,-147.5333,-1.05,67,75,4.12,US,1699493746
40,longyearbyen,78.2186,15.6401,-3.09,80,75,6.69,SJ,1699493725
41,hammerfest,70.6634,23.6821,-0.75,74,98,7.2,NO,1699493747
42,grytviken,-54.2811,-36.5092,3.51,77,100,1.08,GS,1699493747
43,tiksi,71.6872,128.8694,-22.41,98,33,3.69,RU,1699493747
44,bubaque,11.2833,-15.8333,29.03,64,15,5.85,GW,1699493747
45,vila franca do campo,37.7167,-25.4333,20.49,99,99,3.97,PT,1699493748
46,derzhavinsk,51.1,66.3167,4.55,79,100,3.65,KZ,1699493229
47,kurmuk,10.55,34.2833,22.32,82,100,0.92,SD,1699493748
48,phitsanulok,16.9167,100.5,26.37,81,45,0.26,TH,1699493748
49,lagos,6.5833,3.75,25.52,88,63,2.02,NG,1699493693
50,adamstown,-25.066,-130.1015,22.59,86,100,8.55,PN,1699493749
51,freetown,8.484,-13.2299,25.67,87,78,2.82,SL,1699493749
52,ushuaia,-54.8,-68.3,3.81,65,75,7.6,AR,1699493525
53,codrington,-38.2667,141.9667,19.25,55,65,4.58,AU,1699493750
54,tommot,58.9564,126.2925,-25.11,97,100,0.57,RU,1699493303
55,nizhnevartovsk,60.9344,76.5531,-0.99,100,100,6.0,RU,1699493750
56,okha,53.5739,142.9478,-3.04,70,100,1.93,RU,1699493750
57,puerto natales,-51.7236,-72.4875,2.34,92,1,2.91,CL,1699493621
58,bethel,41.3712,-73.414,5.57,56,75,2.57,US,1699493751
59,akdagmadeni,39.6603,35.8836,9.33,54,86,1.81,TR,1699493751
60,tazovsky,67.4667,78.7,-1.2,91,100,8.57,RU,1699493190
61,shimokizukuri,40.8061,140.3861,15.85,59,0,0.36,JP,1699493752
62,kununurra,-15.7667,128.7333,34.99,49,40,3.6,AU,1699493250
63,howard springs,-12.497,131.047,33.82,62,13,2.43,AU,1699493752
64,malanje,-9.5402,16.341,17.29,98,100,1.2,AO,1699493221
65,samsat,37.5819,38.4742,14.58,42,46,1.58,TR,1699493752
66,villa del totoral,-30.8167,-63.7167,17.74,30,0,3.62,AR,1699493753
67,la'ie,21.6477,-157.9253,28.98,69,49,3.13,US,1699493753
68,iskateley,67.6803,53.1512,0.57,100,100,4.02,RU,1699493753
69,nurota,40.5614,65.6886,8.4,66,22,4.07,UZ,1699493753
70,ambovombe,-25.1667,46.0833,22.65,81,100,2.78,MG,1699493754
71,diosig,47.3,22.0,4.2,88,6,3.49,RO,1699493754
72,flying fish cove,-10.4217,105.6791,27.82,83,100,4.63,CX,1699493226
73,hawaiian paradise park,19.5933,-154.9731,26.73,78,100,4.12,US,1699493754
74,edinburgh of the seven seas,-37.0676,-12.3116,13.32,73,15,9.49,SH,1699493755
75,magadan,59.5667,150.8,-14.93,70,5,3.11,RU,1699493755
76,myitkyina,25.3833,97.4,22.35,57,6,1.02,MM,1699493755
77,klamath falls,42.2249,-121.7817,5.95,72,0,2.06,US,1699493755
78,toyooka,35.5333,134.8333,18.03,72,40,2.06,JP,1699493600
79,ancud,-41.8697,-73.8203,8.25,87,83,2.6,CL,1699493562
80,west island,-12.1568,96.8225,26.99,83,100,5.14,CC,1699493756
81,invercargill,-46.4,168.35,12.79,64,35,5.36,NZ,1699493756
82,qaqortoq,60.7167,-46.0333,0.45,99,100,2.16,GL,1699493757
83,puerto ayora,-0.7393,-90.3518,24.75,92,94,3.13,EC,1699493630
84,ust-nera,64.5667,143.2,-26.0,97,68,1.86,RU,1699493757
85,salinopolis,-0.6136,-47.3561,26.58,80,89,3.4,BR,1699493757
86,talnakh,69.4865,88.3972,-6.55,94,100,8.43,RU,1699493758
87,lensk,60.7253,114.9278,-15.75,87,90,1.4,RU,1699493758
88,vorgashor,67.5833,63.95,-0.68,98,100,2.18,RU,1699493758
89,magong,23.5654,119.5863,24.86,82,77,4.56,TW,1699493758
90,petrolina,-9.3986,-40.5008,27.03,65,0,3.6,BR,1699493507
91,as sulayyil,20.4607,45.5779,20.14,32,0,3.31,SA,1699493244
92,konarka,19.9,86.1167,19.22,59,4,3.27,IN,1699493759
93,novofedorivka,46.1713,32.3178,12.05,77,100,7.3,UA,1699493759
94,kidal,18.4411,1.4078,24.63,14,26,1.99,ML,1699493760
95,tofol,5.3248,163.0078,28.2,81,100,6.52,FM,1699493760
96,le vauclin,14.5452,-60.8388,26.03,94,75,2.57,MQ,1699493760
97,mocimboa,-11.3167,40.35,23.57,91,88,1.98,MZ,1699493760
98,ilulissat,69.2167,-51.1,-1.99,86,75,2.57,GL,1699493761
99,cruzeiro do sul,-29.5128,-51.9853,23.38,88,86,0.27,BR,1699493761
100,utrik,11.2278,169.8474,27.9,82,86,9.82,MH,1699493762
101,sinmak,38.4167,126.2333,9.97,68,72,3.09,KP,1699493762
102,minas de marcona,-15.2119,-75.1103,14.5,83,52,4.04,PE,1699493762
103,yaren,-0.5472,166.916,29.03,80,100,7.94,NR,1699493191
104,ungsang-nodongjagu,42.3578,130.4622,6.04,79,100,2.58,KP,1699493764
105,kichmengskiy gorodok,59.9816,45.7854,3.86,80,100,4.02,RU,1699493764
106,pedregal,8.3667,-82.4333,29.04,89,40,3.58,PA,1699493765
107,gorontalo,0.5412,123.0595,32.13,59,32,1.72,ID,1699493765
108,qusmuryn,52.4503,64.6311,4.35,90,100,1.15,KZ,1699493766
109,mount isa,-20.7333,139.5,33.87,33,54,6.69,AU,1699493766
110,ribeira grande,38.5167,-28.7,19.87,97,100,6.71,PT,1699493766
111,vila velha,-20.3297,-40.2925,20.97,83,20,2.06,BR,1699493767
112,karungdong,5.8844,121.263,29.16,72,100,0.97,PH,1699493767
113,xam nua,20.4197,104.0439,23.08,80,24,0.18,LA,1699493767
114,qoryooley,1.7878,44.53,24.87,88,27,0.38,SO,1699493768
115,paita,-5.0892,-81.1144,19.79,82,73,7.06,PE,1699493768
116,elbistan,38.2059,37.1983,11.21,55,80,1.18,TR,1699493768
117,remire-montjoly,4.9167,-52.2667,27.02,83,0,2.06,GF,1699493769
118,yellowknife,62.456,-114.3525,-7.71,86,100,1.03,CA,1699493479
119,luena,-11.7833,19.9167,17.31,98,100,2.12,AO,1699493769
120,kavaratti,10.5669,72.642,28.33,72,100,3.76,IN,1699493770
121,keflavik,64.0049,-22.5624,4.95,70,0,8.23,IS,1699493770
122,tutoia,-2.7619,-42.2744,26.6,87,9,5.68,BR,1699493770
123,livingstone,-17.8419,25.8543,25.6,47,80,2.36,ZM,1699493771
124,san justo,-30.7891,-60.5919,21.1,81,0,1.79,AR,1699493771
125,lebu,-37.6167,-73.65,10.7,88,2,8.18,CL,1699493549
126,north bend,43.4065,-124.2243,10.95,82,0,3.09,US,1699493692
127,jashpurnagar,22.9,84.15,18.54,53,10,1.26,IN,1699493772
128,hopkinsville,36.8656,-87.4886,24.02,65,1,6.25,US,1699493749
129,cedeira,43.6797,-8.0209,13.32,61,51,7.33,ES,1699493773
130,lamu,-2.2717,40.902,24.12,90,100,2.18,KE,1699493774
131,thompson,55.7435,-97.8558,-1.91,69,75,3.6,CA,1699493774
132,puerto armuelles,8.2833,-82.8667,28.98,84,100,3.13,PA,1699493516
133,avarua,-21.2078,-159.775,26.03,69,40,6.17,CK,1699493774
134,handia,25.3833,82.1833,22.04,49,22,1.99,IN,1699493775
135,margate,51.3813,1.3862,7.39,94,100,1.34,GB,1699493775
136,carutapera,-1.195,-46.02,26.21,82,93,3.28,BR,1699493294
137,blackmans bay,-43.0167,147.3167,20.29,77,42,0.45,AU,1699493776
138,viedma,-40.8135,-62.9967,9.31,71,0,3.11,AR,1699493776
139,holualoa,19.6228,-155.9522,27.1,79,40,3.6,US,1699493777
140,hermanus,-34.4187,19.2345,13.32,77,0,3.4,ZA,1699493777
141,tulnici,45.9167,26.6667,6.12,79,75,3.87,RO,1699493777
142,jamestown,42.097,-79.2353,10.01,47,100,6.69,US,1699493683
143,ingeniero guillermo n. juarez,-23.9,-61.85,30.63,52,100,5.9,AR,1699493778
144,fisterra,42.9049,-9.2629,13.19,71,81,8.6,ES,1699493778
145,bredasdorp,-34.5322,20.0403,11.63,80,0,0.81,ZA,1699493779
146,guiren,33.6697,118.1889,18.21,53,100,3.49,CN,1699493779
147,puerto leguizamo,-0.1934,-74.7819,23.38,99,98,1.07,CO,1699493779
148,sisimiut,66.9395,-53.6735,-2.59,88,100,3.22,GL,1699493780
149,atafu village,-8.5421,-172.5159,29.08,71,65,5.5,TK,1699493780
150,ponta delgada,37.7333,-25.6667,20.66,94,75,5.66,PT,1699493780
151,undurkhaan,47.3194,110.6556,-16.74,83,58,3.02,MN,1699493781
152,bamboo flat,11.7,92.7167,26.05,89,40,1.03,IN,1699493207
153,stanley,54.868,-1.6985,5.95,92,75,2.57,GB,1699493781
154,port lincoln,-34.7333,135.8667,19.4,64,5,4.7,AU,1699493782
155,redwood falls,44.5394,-95.1169,5.97,70,0,6.69,US,1699493782
156,korla,41.7597,86.1469,7.29,25,27,2.28,CN,1699493782
157,isangel,-19.55,169.2667,25.06,69,75,2.57,VU,1699493783
158,little falls,40.869,-74.2082,8.22,55,0,3.6,US,1699493783
159,sinan,34.8262,126.1086,18.06,78,98,7.06,KR,1699493783
160,new norfolk,-42.7826,147.0587,20.95,54,69,1.23,AU,1699493335
161,adamovka,51.5223,59.9396,5.72,88,100,6.31,RU,1699493785
162,saldanha,-33.0117,17.9442,14.18,84,0,6.53,ZA,1699493785
163,chernyshevskiy,63.0128,112.4714,-20.71,95,10,1.09,RU,1699493786
164,yuzhno-kurilsk,44.0306,145.8556,9.1,71,99,6.18,RU,1699493786
165,saipan,15.1355,145.701,31.39,70,75,8.23,MP,1699493787
166,nemuro,43.3236,145.575,10.2,70,100,7.86,JP,1699493787
167,midvagur,62.0511,-7.1939,7.46,76,75,6.69,FO,1699493788
168,nuuk,64.1835,-51.7216,-0.66,100,100,4.63,GL,1699493788
169,rio grande,-32.035,-52.0986,18.3,94,87,3.32,BR,1699493718
170,whitehorse,60.7161,-135.0538,4.43,70,100,9.26,CA,1699493517
171,mukalla,14.5425,49.1242,25.71,51,11,1.16,YE,1699493789
172,sitka,57.0531,-135.33,10.94,71,100,8.75,US,1699493201
173,montijo,38.7067,-8.9739,18.68,95,100,4.12,PT,1699493790
174,kodiak,57.79,-152.4072,3.73,87,40,5.66,US,1699493790
175,alaghsas,17.0187,8.0168,23.21,16,59,5.07,NE,1699493791
176,port saint john's,-31.6229,29.5448,18.2,87,100,2.37,ZA,1699493791
177,chonchi,-42.6128,-73.8092,9.56,95,99,1.11,CL,1699493791
178,verkhnevilyuysk,63.4453,120.3167,-18.12,94,98,2.02,RU,1699493792
179,akureyri,65.6835,-18.0878,3.96,75,100,3.6,IS,1699493792
180,san juan,-31.5375,-68.5364,21.71,17,0,4.18,AR,1699493793
181,ambon,-3.6954,128.1814,27.08,89,40,2.57,ID,1699493632
182,salalah,17.0151,54.0924,27.05,29,0,4.12,OM,1699493793
183,emporia,38.4039,-96.1817,16.11,48,75,3.09,US,1699493794
184,deniliquin,-35.5333,144.9667,29.89,28,79,3.08,AU,1699493795
185,alakurtti,66.9672,30.3491,-6.66,97,100,0.58,RU,1699493795
186,sinabang,2.4803,96.3801,26.55,80,100,1.0,ID,1699493796
187,east london,-33.0153,27.9116,15.96,80,0,2.9,ZA,1699493796
188,san ignacio,17.1561,-89.0714,24.08,94,20,0.0,BZ,1699493796
189,newman,37.3138,-121.0208,17.19,50,0,1.68,US,1699493797
190,banda aceh,5.5577,95.3222,27.76,77,97,2.23,ID,1699493797
191,ola,59.5833,151.2833,-14.55,71,7,4.52,RU,1699493797
192,antofagasta,-23.65,-70.4,17.6,78,55,1.63,CL,1699493798
193,huarmey,-10.0681,-78.1522,19.1,84,16,3.8,PE,1699493798
194,sao joao da barra,-21.6403,-41.0511,22.31,77,0,6.16,BR,1699493798
195,kiruna,67.8557,20.2251,-3.49,93,100,1.54,SE,1699493799
196,polyarnyy,69.1989,33.4478,-6.93,92,90,1.96,RU,1699493799
197,kulhudhuffushi,6.6221,73.07,26.89,78,100,1.23,MV,1699493799
198,hamilton,39.1834,-84.5333,23.76,59,0,4.63,US,1699493669
199,inderbor,48.55,51.7833,7.83,82,81,2.89,KZ,1699493800
200,enewetak,11.3474,162.3373,28.49,74,83,9.44,MH,1699493800
201,acapulco de juarez,16.8634,-99.8901,27.5,83,4,3.36,MX,1699493708
202,quelimane,-17.8786,36.8883,26.97,89,75,2.06,MZ,1699493801
203,eyl,7.9803,49.8164,24.95,80,77,5.03,SO,1699493802
204,susuman,62.7833,148.1667,-26.44,97,92,0.99,RU,1699493206
205,choma,-16.8065,26.9531,19.5,78,4,1.42,ZM,1699493802
206,tolanaro,-25.0319,46.9987,21.41,94,100,2.29,MG,1699493803
207,puerto deseado,-47.7503,-65.8938,8.06,65,17,6.36,AR,1699493803
208,crieff,56.3727,-3.8389,5.08,97,53,1.52,GB,1699493803
209,pisco,-13.7,-76.2167,19.03,82,0,6.17,PE,1699493804
210,makhambet,47.6667,51.5833,7.69,82,68,2.08,KZ,1699493804
211,vilyuchinsk,52.9306,158.4028,1.15,59,5,5.14,RU,1699493804
212,athens,37.9795,23.7162,20.37,80,20,1.03,GR,1699493598
213,patnanungan,14.7833,122.1833,27.73,83,100,5.6,PH,1699493805
214,lompoc,34.6391,-120.4579,17.08,68,0,11.18,US,1699493806
215,iranshahr,27.2025,60.6848,21.32,40,2,2.32,IR,1699493806
216,nueva gerona,21.8833,-82.8,25.84,80,33,7.11,CU,1699493806
217,petrovka,53.0503,103.1,-13.12,85,40,2.95,RU,1699493807
218,cabo san lucas,22.8909,-109.9124,27.51,77,100,2.06,MX,1699493428
219,nisa,43.7031,7.2661,13.01,70,0,5.14,FR,1699493808
220,burayevo,55.8407,55.4083,2.66,96,62,2.47,RU,1699493808
221,at taj,24.2049,23.2857,19.09,43,0,4.42,LY,1699493809
222,ocana,8.2377,-73.356,18.8,92,42,2.27,CO,1699493809
223,papatowai,-46.5619,169.4708,11.57,54,39,5.05,NZ,1699493809
224,kosh-agach,50.0,88.6667,-13.72,97,99,1.34,RU,1699493810
225,gore,-46.1028,168.9436,14.21,43,65,2.5,NZ,1699493810
226,tyukhtet,56.5389,89.3011,-12.09,83,5,4.06,RU,1699493810
227,nago,26.5881,127.9761,28.47,82,100,4.37,JP,1699493811
228,jiuquan,39.7432,98.5174,1.46,36,5,1.88,CN,1699493811
229,necochea,-38.5473,-58.7368,10.68,74,0,4.58,AR,1699493811
230,santiago de cao,-7.9589,-79.2392,19.07,88,75,4.63,PE,1699493812
231,lluta,-16.0147,-72.0142,13.18,65,100,1.96,PE,1699493812
232,topchikha,52.8192,83.1185,-7.25,97,22,1.82,RU,1699493812
233,shingu,33.7333,135.9833,20.24,78,100,1.81,JP,1699493813
234,xilitla,21.3333,-98.9667,20.28,96,38,1.12,MX,1699493813
235,sunzha,43.3211,45.0522,9.16,68,95,2.24,RU,1699493813
236,macusani,-14.0833,-70.4333,4.6,82,100,2.54,PE,1699493813
237,orkney,-26.9802,26.6727,17.96,47,0,2.3,ZA,1699493814
238,vorkuta,67.5,64.0,-0.97,99,100,1.98,RU,1699493814
239,mejit,10.2753,170.8646,27.88,84,91,10.32,MH,1699493224
240,granville,-33.8333,151.0167,30.56,53,0,7.72,AU,1699493815
241,acarau,-2.8856,-40.12,26.51,83,26,8.01,BR,1699493815
242,namtsy,62.7161,129.6658,-24.93,94,73,0.65,RU,1699493815
243,pong nam ron,12.9058,102.2623,25.76,88,90,1.05,TH,1699493816
244,anadyr,64.75,177.4833,-3.72,79,100,9.0,RU,1699493816
245,dudinka,69.4058,86.1778,-6.32,92,100,12.96,RU,1699493816
246,vadso,70.0744,29.7487,-2.51,74,100,3.6,NO,1699493816
247,drayton valley,53.2168,-114.9854,-0.25,69,15,1.58,CA,1699493817
248,solapur,17.6833,75.9167,23.58,78,100,3.29,IN,1699493817
249,puerto baquerizo moreno,-0.9,-89.6,24.56,82,100,6.08,EC,1699493817
250,lodja,-3.4833,23.4333,20.85,99,100,1.06,CD,1699493818
251,marsh harbour,26.5412,-77.0636,25.16,72,19,6.31,BS,1699493818
252,kapa'a,22.0752,-159.319,27.99,77,40,4.63,US,1699493818
253,port alfred,-33.5906,26.891,13.99,92,28,4.52,ZA,1699493819
254,garachico,28.7781,-17.7646,20.06,60,75,5.66,ES,1699493819
255,richards bay,-28.783,32.0377,18.84,80,100,0.93,ZA,1699493560
256,mariehamn,60.0973,19.9348,4.9,93,100,4.12,AX,1699493819
257,tongliao,43.6125,122.2653,-5.19,70,69,6.37,CN,1699493820
258,nar'yan-mar,67.6713,53.087,0.62,100,100,4.02,RU,1699493820
259,alice springs,-23.7,133.8833,28.75,32,99,4.63,AU,1699493820
260,fort bragg,35.139,-79.006,19.9,72,0,2.06,US,1699493223
261,syzran',53.1585,48.4681,5.39,93,100,1.66,RU,1699493821
262,levokumskoye,44.8219,44.6606,9.13,88,100,3.21,RU,1699493821
263,saint croix,17.7397,-64.7388,27.25,85,40,2.06,VI,1699493822
264,magistral'nyy,56.1725,107.4458,-10.35,87,100,3.23,RU,1699493822
265,mount pearl,47.5166,-52.7813,6.75,99,100,2.06,CA,1699493728
266,kotovsk,47.7531,29.532,8.04,82,100,4.4,UA,1699493823
267,saint-joseph,-21.3667,55.6167,21.21,81,1,2.94,RE,1699493823
268,sauri,11.7266,6.7837,23.05,21,72,2.47,NG,1699493823
269,mansa,29.9833,75.3833,20.43,40,0,0.62,IN,1699493824
270,kailua-kona,19.6406,-155.9956,29.17,75,40,3.6,US,1699493587
271,lahat,-3.8,103.5333,31.18,50,99,1.2,ID,1699493825
272,haiku-pauwela,20.9219,-156.3051,29.01,59,40,5.14,US,1699493607
273,south hedland,-20.4089,118.5983,31.96,58,0,3.6,AU,1699493825
274,manaure,11.7751,-72.4445,28.52,82,92,6.5,CO,1699493826
275,brandon,27.9378,-82.2859,23.92,77,0,2.24,US,1699493826
276,khovd,48.0056,91.6419,-4.89,62,55,0.56,MN,1699493826
277,coquimbo,-29.9533,-71.3436,15.85,82,0,1.03,CL,1699493557
278,pemangkat,1.1667,108.9667,26.15,84,100,1.91,ID,1699493827
279,saudarkrokur,65.7461,-19.6394,0.25,88,14,2.17,IS,1699493828
280,zhanibek,49.4167,46.85,8.53,72,100,4.36,KZ,1699493828
281,sorong,-0.8833,131.25,28.74,70,100,2.63,ID,1699493829
282,pitimbu,-7.4706,-34.8086,25.33,77,44,5.17,BR,1699493829
283,oppdal,62.5943,9.6912,-3.3,89,76,5.68,NO,1699493829
284,namibe,-15.1961,12.1522,18.37,88,0,1.47,AO,1699493690
285,tianpeng,30.9866,103.9393,17.89,60,0,0.4,CN,1699493830
286,klyuchi,52.2667,79.1667,-0.13,54,19,3.61,RU,1699493831
287,egilsstadir,65.2653,-14.3948,2.95,87,75,5.66,IS,1699493831
288,queenstown,-31.8976,26.8753,13.2,83,90,1.15,ZA,1699493832
289,luderitz,-26.6481,15.1594,17.23,53,0,7.71,NA,1699493832
290,al burayqah,30.4062,19.5739,21.91,68,100,2.87,LY,1699493832
291,borogontsy,62.6683,131.1683,-24.39,95,94,0.1,RU,1699493833
292,manakara,-22.1333,48.0167,21.47,94,95,2.56,MG,1699493833
293,togur,58.3631,82.8265,-4.36,94,99,4.02,RU,1699493834
294,sur,22.5667,59.5289,25.49,70,0,0.47,OM,1699493834
295,papao,-17.75,-149.55,27.82,87,83,10.85,PF,1699493834
296,sinop,41.7711,34.8709,14.36,58,100,2.55,TR,1699493835
297,montmorillon,46.4167,0.6667,9.94,94,100,6.26,FR,1699493835
298,kingston,17.997,-76.7936,28.53,84,20,3.6,JM,1699493754
299,amga,60.8953,131.9608,-22.11,93,68,0.52,RU,1699493836
300,trairi,-3.2778,-39.2689,26.77,78,64,6.47,BR,1699493126
301,katsuura,35.1333,140.3,19.43,56,98,3.14,JP,1699493837
302,thomson,33.4707,-82.5046,20.79,77,0,0.0,US,1699493633
303,huanan,46.2167,130.5167,-5.45,92,100,1.39,CN,1699493838
304,griffith,41.5284,-87.4237,13.6,86,100,7.72,US,1699493838
305,montepuez,-13.1256,38.9997,20.84,89,21,1.07,MZ,1699493839
306,margaret river,-33.95,115.0667,15.12,66,100,7.01,AU,1699493840
307,el salto,20.3333,-104.5,17.93,92,94,1.44,MX,1699493840
308,basco,20.4487,121.9702,27.19,82,67,8.82,PH,1699493840
309,livramento do brumado,-13.6431,-41.8406,23.03,75,2,1.67,BR,1699493841
310,horta,38.5333,-28.6333,19.45,97,100,6.71,PT,1699493841
311,rahachow,53.0934,30.0495,5.56,93,100,2.75,BY,1699493841
312,fayzabad,37.1166,70.58,7.75,98,100,1.77,AF,1699493842
313,okahao,-17.885,15.0667,19.87,33,9,3.23,NA,1699493842
314,myeik,12.4333,98.6,26.89,83,44,2.03,MM,1699493843
315,praia da vitoria,38.7333,-27.0667,18.75,100,75,3.04,PT,1699493843
316,thongwa,16.7619,96.5278,27.09,75,50,0.31,MM,1699493843
317,maragogi,-9.0122,-35.2225,25.34,77,100,4.43,BR,1699493844
318,shadrinsk,56.0852,63.6335,1.38,93,100,2.27,RU,1699493844
319,callao,-12.0667,-77.15,20.95,82,75,3.6,PE,1699493845
320,tromso,69.6496,18.957,-2.99,80,15,1.54,NO,1699493701
321,christchurch,-43.5333,172.6333,16.06,56,75,5.66,NZ,1699493845
322,jiaojiang,28.6803,121.4428,21.11,73,100,1.22,CN,1699493846
323,garissa,-0.4536,39.6401,23.81,83,94,2.94,KE,1699493847
324,ohara,35.25,140.3833,19.22,56,100,2.96,JP,1699493847
325,nizhnyaya tavda,57.6731,66.1725,-1.05,86,100,2.07,RU,1699493847
326,siocon,7.7061,122.1353,29.8,70,100,1.02,PH,1699493847
327,kapit,2.0167,112.9333,26.54,84,100,0.93,MY,1699493848
328,takoradi,4.8845,-1.7554,25.88,86,100,3.11,GH,1699493848
329,carnarvon,-24.8667,113.6333,23.31,62,1,8.16,AU,1699493849
330,tostado,-29.232,-61.7692,23.32,66,0,5.4,AR,1699493849
331,kuraymah,18.55,31.85,25.85,46,48,4.42,SD,1699493850
332,bedford,52.1346,-0.4663,6.61,93,100,4.49,GB,1699493851
333,kone,-21.0595,164.8658,25.07,54,83,4.19,NC,1699493851
334,johvi,59.3592,27.4211,5.78,95,100,3.23,EE,1699493852
335,suva,-18.1416,178.4415,24.71,94,75,2.57,FJ,1699493852
336,kruisfontein,-34.0033,24.7314,11.19,80,0,2.66,ZA,1699493853
337,lamarque,-39.423,-65.7021,18.05,19,0,3.72,AR,1699493853
338,tralee,52.2704,-9.7026,8.09,76,91,9.75,IE,1699493854
339,zhongshu,24.5167,103.7667,15.6,86,98,2.92,CN,1699493855
340,palmer,42.1584,-72.3287,3.47,54,75,1.54,US,1699493855
341,fougamou,-1.2154,10.5838,23.7,99,100,0.15,GA,1699493855
342,botevgrad,42.9,23.7833,7.52,89,41,1.41,BG,1699493856
343,salekhard,66.53,66.6019,-1.64,96,100,2.17,RU,1699493856
344,jalai nur,49.45,117.7,-10.51,78,94,3.94,CN,1699493857
345,khandyga,62.6667,135.6,-27.4,95,40,0.57,RU,1699493857
346,san patricio,28.017,-97.5169,25.97,81,26,5.22,US,1699493858
347,kenora,49.8167,-94.4337,0.54,86,100,5.66,CA,1699493716
348,ban dan lan hoi,17.0068,99.575,26.81,86,73,0.69,TH,1699493859
349,hasaki,35.7333,140.8333,18.22,53,32,2.42,JP,1699493859
350,burao,9.5221,45.5336,20.33,60,5,2.98,SO,1699493860
351,jaguarao,-32.5661,-53.3758,16.36,91,100,4.43,BR,1699493010
352,isafjordur,66.0755,-23.124,3.86,84,88,8.34,IS,1699493860
353,mili,6.0815,171.735,27.2,85,100,7.6,MH,1699493862
354,ecoporanga,-18.3733,-40.8306,18.37,86,0,0.66,BR,1699493862
355,qarazhal,48.0078,70.7903,7.48,94,100,7.17,KZ,1699493863
356,mogocha,53.7333,119.7667,-10.91,71,99,2.94,RU,1699493266
357,bereznik,62.8551,42.7072,0.3,93,100,3.29,RU,1699493863
358,port mathurin,-19.6833,63.4167,24.95,72,4,7.99,MU,1699493864
359,isola di capo rizzuto,38.96,17.0933,12.32,67,1,3.69,IT,1699493864
360,gadzhiyevo,69.2551,33.3362,-6.54,92,96,1.8,RU,1699493865
361,hithadhoo,-0.6,73.0833,27.24,82,73,5.6,MV,1699493865
362,paraty,-23.2178,-44.7131,22.68,71,7,1.84,BR,1699493807
363,edremit,39.5961,27.0244,17.49,100,40,1.54,TR,1699493866
364,akhtubinsk,48.2795,46.1722,8.97,67,100,5.19,RU,1699493866
365,dhuusamarreeb,5.535,46.3861,24.29,81,100,4.44,SO,1699493866
366,tagta,41.6504,59.9164,3.97,93,0,3.09,TM,1699493867
367,mantua,45.1667,10.7833,7.58,78,15,0.38,IT,1699493867
368,manismata,-2.4667,111.0333,30.4,65,94,1.71,ID,1699493868
369,lihue,21.9789,-159.3672,27.58,71,40,4.63,US,1699493868
370,tamanrasset,22.785,5.5228,18.92,16,51,3.77,DZ,1699493668
371,taourirt,34.4073,-2.8973,13.05,41,95,1.33,MA,1699493869
372,lerwick,60.1545,-1.1494,8.0,74,43,7.65,GB,1699493869
373,ramban,33.25,75.25,12.26,54,89,2.82,IN,1699493870
374,phang nga,8.4509,98.5298,29.02,77,67,0.58,TH,1699493870
375,jining,35.405,116.5814,14.89,51,98,8.49,CN,1699493870
376,yueyang,29.3333,113.0919,18.65,93,100,2.48,CN,1699493871
377,cherepovets,59.1333,37.9,4.88,92,100,2.05,RU,1699493871
378,badiyah,22.45,58.8,22.83,72,1,1.56,OM,1699493871
379,cacheu,12.2706,-16.1658,23.05,71,31,2.31,GW,1699493872
380,bridgewater,44.3835,-64.5155,1.82,68,53,8.23,CA,1699493872
381,tsiombe,-25.3,45.4833,23.43,74,100,1.93,MG,1699493872
382,laguna,38.421,-121.4238,18.98,41,0,3.6,US,1699493873
383,djibo,14.1022,-1.6306,28.56,21,97,2.96,BF,1699493873
384,shushtar,32.0455,48.8567,21.36,37,0,0.3,IR,1699493873
385,tura,25.5198,90.2201,21.43,70,2,0.6,IN,1699493874
386,pobe,6.9801,2.6649,23.34,96,35,1.47,BJ,1699493874
387,georgetown,5.4112,100.3354,29.97,77,20,1.54,MY,1699493874
388,masvingo,-20.0637,30.8277,18.05,80,98,3.11,ZW,1699493875
389,bonga,7.2833,36.2333,13.97,98,46,0.84,ET,1699493875
390,balabac,7.9868,117.0645,28.98,75,92,4.35,PH,1699493875
391,ploudalmezeau,48.5333,-4.65,12.14,93,75,5.14,FR,1699493876
392,lata,40.1629,-8.3327,13.29,94,100,1.89,PT,1699493876
393,taulaga,-11.0553,-171.0883,28.55,70,100,3.51,AS,1699493876
394,embi,48.8264,58.1442,7.78,80,100,5.01,KZ,1699493877
395,aginskoye,51.1,114.53,-9.49,76,100,4.77,RU,1699493877
396,hadibu,12.65,54.0333,25.64,76,15,3.22,YE,1699493878
397,maridi,4.9158,29.4742,19.61,97,100,1.67,SS,1699493878
398,kirando,-7.4167,30.6,23.44,78,98,1.77,TZ,1699493878
399,outjo,-20.1167,16.15,19.72,28,0,3.37,NA,1699493879
400,rio tuba,8.5061,117.4317,29.07,74,89,5.25,PH,1699493879
401,taltal,-25.4,-70.4833,15.79,83,47,0.29,CL,1699493421
402,linganore,39.4404,-77.208,10.8,69,0,0.89,US,1699493879
403,calca,-13.3333,-71.95,17.64,76,100,2.15,PE,1699493880
404,bodaybo,57.8506,114.1933,-17.47,94,99,0.49,RU,1699493880
405,robore,-18.3333,-59.75,30.35,38,39,0.85,BO,1699493880
406,sarina,-21.4333,149.2167,29.04,47,9,4.74,AU,1699493881
407,uturoa,-16.7333,-151.4333,25.9,79,30,9.29,PF,1699493881
408,al lagowa,11.4,29.1333,26.68,57,100,0.7,SD,1699493881
409,monywa,22.1167,95.1333,24.95,78,55,2.32,MM,1699493882
410,pyapon,16.2833,95.6833,27.0,70,88,2.07,MM,1699493882
411,tsimasham,27.0989,89.536,9.8,60,36,0.81,BT,1699493882
412,ajaigarh,24.9,80.2667,21.46,47,6,1.97,IN,1699493883
413,mungaa,-4.9667,34.8833,16.85,66,99,3.77,TZ,1699493883
414,barcelos,41.5388,-8.6151,12.18,88,100,2.53,PT,1699493725
415,nizhneudinsk,54.9076,99.0276,-13.69,84,32,1.61,RU,1699493883
416,lycksele,64.5954,18.6735,-1.07,100,95,1.03,SE,1699493884
417,broken hill,-31.95,141.4333,29.89,22,0,1.63,AU,1699493350
418,lospalos,-8.5186,127.0025,33.41,30,1,2.75,TL,1699493885
419,prince rupert,54.3161,-130.3201,10.05,79,100,14.92,CA,1699493885
420,ta`u,-14.2336,-169.5144,26.99,81,100,4.21,AS,1699493885
421,plettenberg bay,-34.0527,23.3716,12.61,80,0,1.82,ZA,1699493886
422,guerrero negro,27.9769,-114.0611,19.6,64,82,6.1,MX,1699493613
423,vernon,50.2581,-119.2691,5.42,86,27,0.51,CA,1699493886
424,stawell,-37.05,142.7667,24.41,34,0,0.94,AU,1699493329
425,tumayr,25.7039,45.868,18.78,36,0,1.65,SA,1699493887
426,mataram,-8.5833,116.1167,32.45,63,57,3.73,ID,1699493887
427,extrema,-22.8547,-46.3183,19.06,52,91,2.2,BR,1699493888
428,vallenar,-28.5708,-70.7581,21.8,44,6,2.31,CL,1699493888
429,lewiston orchards,46.3804,-116.9754,8.95,69,0,1.54,US,1699493604
430,tazacorte,28.629,-17.9293,21.54,74,75,5.66,ES,1699493889
431,ad dawadimi,24.5077,44.3924,17.64,44,0,3.91,SA,1699493889
432,vilyuysk,63.7553,121.6247,-17.18,94,100,2.47,RU,1699493890
433,dunedin,-45.8742,170.5036,11.0,80,96,3.13,NZ,1699493890
434,letlhakeng,-24.0944,25.0298,20.5,63,0,3.22,BW,1699493890
435,mandan,46.8267,-100.8896,3.99,61,0,4.12,US,1699493516
436,nova sintra,14.8667,-24.7167,22.92,67,92,7.43,CV,1699493891
437,ayr,55.4627,-4.6339,6.29,81,20,4.12,GB,1699493714
438,kapuskasing,49.4169,-82.4331,-2.0,74,100,5.14,CA,1699493729
439,mtambile,-5.3833,39.7,25.6,81,52,1.49,TZ,1699493891
440,colonia,50.9333,6.95,11.05,86,40,4.12,DE,1699493892
441,sol'tsy,58.1239,30.3238,5.95,95,99,1.72,RU,1699493892
442,mkushi,-13.6202,29.3939,19.11,87,100,1.75,ZM,1699493892
443,kyelang,32.5833,77.0333,-6.26,78,13,2.38,IN,1699493893
444,bodo,67.28,14.405,3.02,70,100,7.2,NO,1699493893
445,kill devil hills,36.0307,-75.676,16.66,80,0,0.0,US,1699493893
446,baruun-urt,46.6806,113.2792,-16.31,87,69,4.87,MN,1699493893
447,vinh,18.6667,105.6667,26.42,80,11,1.18,VN,1699493894
448,toliara,-23.35,43.6667,24.06,84,100,1.67,MG,1699493895
449,kijang,35.2442,129.2139,14.85,65,87,3.8,KR,1699493895
450,alofi,-19.0595,-169.9187,28.94,70,64,4.63,NU,1699493302
451,manokwari,-0.8667,134.0833,25.9,84,100,0.98,ID,1699493896
452,tarawa,1.419,172.984,29.2,72,16,1.67,KI,1699493896
453,kalifornsky,60.4183,-151.29,1.89,98,100,3.6,US,1699493896
454,qarah bagh,34.9402,61.7759,8.05,74,5,4.03,AF,1699493897
455,ascencion,31.1,-107.9833,21.45,29,100,7.67,MX,1699493897
456,kourou,5.1552,-52.6478,26.03,80,26,4.76,GF,1699493897
457,hancheng,32.5186,112.3522,18.87,56,100,4.21,CN,1699493898
458,santa terezinha,-29.9002,-50.0904,21.12,80,73,3.6,BR,1699493898
459,tchintabaraden,15.8969,5.7985,24.96,12,94,4.53,NE,1699493898
460,fuzesgyarmat,47.1,21.2167,6.47,79,2,3.08,HU,1699493899
461,kongolo,-5.3833,27.0,22.07,96,97,0.85,CD,1699493899
462,sulak,43.2734,47.5146,12.85,89,100,9.21,RU,1699493899
463,bengkulu,-3.8004,102.2655,26.78,78,56,1.77,ID,1699493900
464,illizi,26.4833,8.4667,23.42,14,100,2.64,DZ,1699493900
465,happy valley-goose bay,53.3168,-60.3315,-1.83,86,100,7.72,CA,1699493879
466,kolonia town,6.964,158.206,30.06,79,100,4.12,FM,1699493901
467,afaahiti,-17.75,-149.2833,26.93,85,99,9.75,PF,1699493901
468,winnemucca,40.973,-117.7357,4.03,41,0,1.54,US,1699493901
469,ulsan,35.5372,129.3167,19.07,59,49,3.78,KR,1699493902
470,itacare,-14.2775,-38.9967,23.03,81,11,3.41,BR,1699493902
471,belmonte,-15.8631,-38.8828,22.74,77,0,2.55,BR,1699493903
472,kyren,51.6828,102.1408,-14.62,70,3,0.27,RU,1699493903
473,portland,45.5234,-122.6762,9.96,86,20,0.89,US,1699493808
474,puerto colombia,10.9878,-74.9547,29.05,80,7,6.87,CO,1699493904
475,ulanhot,46.0833,122.0833,-4.78,38,0,5.21,CN,1699493904
476,crane,31.3974,-102.3501,25.62,26,93,0.78,US,1699493904
477,walvis bay,-22.9575,14.5053,13.94,94,0,4.12,NA,1699493905
478,kaa-khem,51.6833,94.7333,-11.44,78,89,2.09,RU,1699493905
479,nantucket,41.2835,-70.0995,6.06,57,0,5.66,US,1699493905
480,enterprise,36.0252,-115.2419,17.3,20,0,10.29,US,1699493906
481,cannonvale,-20.2833,148.7,25.66,62,15,5.97,AU,1699493906
482,asola,45.2211,10.4136,7.43,77,43,0.95,IT,1699493906
483,banff,51.1762,-115.5698,2.57,47,67,2.06,CA,1699493872
484,caleta olivia,-46.4393,-67.5281,14.22,38,15,3.06,AR,1699493907
485,sechura,-5.5569,-80.8222,20.18,78,44,6.67,PE,1699493907
486,kiama,-34.6833,150.8667,25.7,69,94,5.82,AU,1699493907
487,tosontsengel,48.7567,98.2839,-19.54,91,100,1.43,MN,1699493908
488,martapura,-3.4167,114.85,30.05,74,20,2.57,ID,1699493908
489,port blair,11.6667,92.75,28.72,72,9,2.33,IN,1699493908
490,lodwar,3.1191,35.5973,25.9,63,27,2.32,KE,1699493909
491,raduzhnyy,62.0961,77.475,-3.03,93,91,5.61,RU,1699493909
492,valley center,33.2184,-117.0342,18.69,44,0,4.37,US,1699493909
493,silver city,32.7701,-108.2803,14.81,25,0,4.63,US,1699493910
494,tierp,60.3427,17.5181,3.9,95,100,1.78,SE,1699493910
495,weno,7.4515,151.8468,29.97,79,75,6.17,FM,1699493911
496,bardai,11.65,7.2333,22.15,23,78,2.36,NG,1699493911
497,qazvin,36.2797,50.0049,5.79,81,0,1.03,IR,1699493912
498,sant antoni de portmany,38.9807,1.3036,17.43,63,0,7.2,ES,1699493912
499,howrah,22.5892,88.3103,23.0,78,3,0.0,IN,1699493912
500,rio largo,-9.4783,-35.8533,24.25,88,20,1.54,BR,1699493913
501,letlhakane,-21.4167,25.5833,21.12,68,0,5.81,BW,1699493913
502,arkhara,49.4212,130.0842,-11.24,96,86,1.79,RU,1699493913
503,barah,13.7,30.3667,26.57,28,24,3.38,SD,1699493913
504,tottori,35.5,134.2333,20.04,60,20,2.57,JP,1699493914
505,ouani,-12.1322,44.4258,26.29,79,49,3.46,KM,1699493914
506,gaoual,11.75,-13.2,24.48,62,83,1.4,GN,1699493914
507,floro,61.5996,5.0328,5.54,81,100,10.29,NO,1699493915
508,quellon,-43.1167,-73.6167,8.17,81,95,2.79,CL,1699493915
509,tadine,-21.55,167.8833,23.12,54,47,7.86,NC,1699493915
510,san jose de mayo,-34.3375,-56.7136,14.64,48,42,0.62,UY,1699493915
511,ulaangom,49.9811,92.0667,-6.25,93,100,3.17,MN,1699493916
512,aasiaat,68.7098,-52.8699,-5.09,82,100,0.71,GL,1699493916
513,ayaviri,-14.8864,-70.5889,10.88,55,98,1.89,PE,1699493916
514,ebon,4.582,168.6964,27.01,85,100,5.83,MH,1699493917
515,altamira,-3.2033,-52.2064,25.88,57,96,0.67,BR,1699493917
516,gewane,10.1664,40.6453,27.14,38,98,1.41,ET,1699493917
517,nouadhibou,20.931,-17.0347,19.99,73,94,8.75,MR,1699493917
518,fada,9.5667,8.3,21.36,60,100,1.01,NG,1699493918
519,amalapuram,16.5833,82.0167,25.85,80,100,1.52,IN,1699493918
520,trubchevsk,52.5798,33.7644,3.57,95,14,2.62,RU,1699493918
521,boa vista,2.8197,-60.6733,27.99,69,20,2.06,BR,1699493700
522,acheng,45.5454,126.977,-3.5,87,100,1.85,CN,1699493919
523,vuktyl,63.8567,57.3094,2.28,99,100,4.47,RU,1699493919
524,nyons,44.3333,5.1667,5.86,78,100,3.4,FR,1699493919
525,kaoma,-14.7833,24.8,17.44,92,99,0.76,ZM,1699493920
526,samitah,16.596,42.9444,28.27,72,36,2.38,SA,1699493920
527,tabriz,38.08,46.2919,6.7,57,0,2.06,IR,1699493920
528,lesnoy,57.6198,63.0784,0.76,89,100,1.61,RU,1699493921
529,eureka,40.8021,-124.1637,12.34,85,4,1.34,US,1699493921
530,usinsk,65.9939,57.5281,1.71,100,100,5.36,RU,1699493921
531,saint-philippe,-21.3585,55.7679,21.77,82,3,3.97,RE,1699493922
532,ouesso,1.6136,16.0517,21.68,98,97,0.88,CG,1699493922
533,point pedro,9.8167,80.2333,27.07,79,100,0.62,LK,1699493923
534,mineiros,-17.5694,-52.5511,25.74,55,82,1.39,BR,1699493923
535,wotho,10.1657,166.0102,28.03,79,82,9.36,MH,1699493924
536,kainantu,-6.2887,145.8655,24.5,58,82,0.36,PG,1699493924
537,trincomalee,8.5711,81.2335,26.17,83,83,1.72,LK,1699493924
538,termas de rio hondo,-27.4998,-64.8604,23.33,48,8,4.24,AR,1699493925
539,dunay,42.8803,132.3375,2.62,95,100,3.78,RU,1699493925
540,hechuan,29.9947,106.2572,19.27,77,84,1.51,CN,1699493925
541,zhelezinka,53.54,75.3072,1.09,51,1,4.41,KZ,1699493926
542,salmon arm,50.6998,-119.3024,4.62,87,77,0.51,CA,1699493926
543,al bardiyah,31.7561,25.0865,19.82,82,2,2.43,LY,1699493928
544,fort-shevchenko,44.5086,50.263,11.34,76,99,5.65,KZ,1699493928
545,maintirano,-18.0667,44.0167,25.85,83,3,1.53,MG,1699493928
546,chegdomyn,51.1167,133.0167,-4.49,71,100,2.3,RU,1699493929
547,las tablas,7.7667,-80.2833,26.66,86,99,4.58,PA,1699493929
548,timimoun,29.2639,0.231,19.42,52,10,7.76,DZ,1699493930
549,brisas de zicatela,15.8369,-97.0419,29.29,100,75,3.09,MX,1699493351
550,gulnar,36.3415,33.3992,11.65,83,100,0.5,TR,1699493930
551,villa zempoala,19.45,-96.4167,26.06,91,83,1.19,MX,1699493773
552,woolgoolga,-30.1106,153.2007,26.69,68,96,6.4,AU,1699493931
553,nadi,-17.8,177.4167,30.0,58,100,6.17,FJ,1699493698
554,tiznit,29.5833,-9.5,17.74,36,31,0.96,MA,1699493932
555,darwin,-12.4611,130.8418,33.86,57,20,3.6,AU,1699493932
556,nabire,-3.3667,135.4833,28.29,78,83,1.0,ID,1699493933
557,polatsk,55.4859,28.7756,6.02,88,97,2.5,BY,1699493933
558,yekaterinoslavka,50.3734,129.1139,-8.54,88,87,0.8,RU,1699493933
559,fort-de-france,14.6089,-61.0733,25.97,89,20,2.06,MQ,1699493933
560,beidao,34.5686,105.8933,10.0,36,39,1.69,CN,1699493934
561,sumbe,-11.2061,13.8437,24.66,86,100,3.19,AO,1699493934
562,riyadh,24.6877,46.7219,17.08,38,0,1.18,SA,1699493935
563,kamien pomorski,53.9685,14.7726,7.09,82,100,6.3,PL,1699493935
564,iquitos,-3.7481,-73.2472,25.02,88,75,2.57,PE,1699493669
565,qalat,32.1058,66.9083,10.16,76,5,2.77,AF,1699493935
566,cadale,2.7603,46.3222,27.16,81,100,4.35,SO,1699493936
567,cuellar,41.3679,-4.3084,10.55,89,100,8.79,ES,1699493936
568,bandarbeyla,9.4942,50.8122,25.56,80,92,4.42,SO,1699493936
569,revelstoke,50.9832,-118.2023,4.01,93,100,0.0,CA,1699493937
570,santa elena de uairen,4.6167,-61.1333,20.53,86,24,1.5,VE,1699493937
571,mil'kovo,55.6078,37.7956,5.59,97,99,1.22,RU,1699493937
572,beberibe,-4.1797,-38.1306,26.17,80,64,7.4,BR,1699493937
573,dapa,9.7594,126.0531,28.85,72,18,2.77,PH,1699493939
574,dolores,-36.3132,-57.6792,10.69,69,56,3.53,AR,1699493939
575,las lomas,8.4333,-82.4,28.66,89,40,3.58,PA,1699493939
576,xilin hot,43.9667,116.0333,-11.82,73,4,7.41,CN,1699493940
577,leh,34.1667,77.5833,-0.49,60,76,0.62,IN,1699493940
578,lu-uk,5.9684,121.3122,29.46,69,100,1.26,PH,1699493940
579,dhidhdhoo,6.8833,73.1,26.2,85,100,4.43,MV,1699493825
580,qatana,33.4354,36.0815,9.24,42,0,1.04,SY,1699493940
581,aral,40.5156,81.2636,8.25,21,100,1.7,CN,1699493941
582,thunder bay,48.4001,-89.3168,1.99,100,100,1.54,CA,1699493941
583,oxford,51.7522,-1.256,7.08,93,20,3.09,GB,1699493817
584,puqi,29.7167,113.8833,18.87,93,100,1.59,CN,1699493941
585,xianning,29.8833,114.2167,18.49,92,100,2.01,CN,1699493942
586,port said,31.2565,32.2841,23.99,73,40,3.09,EG,1699493942
587,topi,34.0704,72.6236,17.28,39,85,1.87,PK,1699493942
588,arkhangel'sk,64.5401,40.5433,0.63,99,100,3.25,RU,1699493942
589,shimoda,34.6667,138.95,19.2,64,100,3.85,JP,1699493943
